{
    "stores": [
      {
        "id": 1,
        "name": "Park Row at Beekman St",
        "address": "38 Park Row",
        "city": "New York",
        "openingHours": "10:00 - 14:00 and 17:00 - 20:30"
      },
      {
        "id": 2,
        "name": "Store Alcalá",
        "address": "Calle de Alcalá, 21",
        "city": "Madrid",
        "openingHours": "10:00 - 14:00 and 17:00 - 20:30"
      },
      {
        "id": 3,
        "name": "Chambers and West Broadway",
        "address": "125 Chambers Street",
        "city": "New York",
        "openingHours": "10:00 - 14:00 and 17:00 - 20:30"
      },
      {
        "id": 4,
        "name": "Covent Garden - Russell St",
        "address": "10 Russell Street",
        "city": "London",
        "openingHours": "10:00 - 14:00 and 17:00 - 20:30"
      },
      {
        "id": 5,
        "name": "Monmouth St",
        "address": "11 Monmouth Street",
        "city": "London",
        "openingHours": "10:00 - 14:00 and 17:00 - 20:30"
      }
    ],
    "categories": [
      {
        "id": 1,
        "name": "Books"
      },
      {
        "id": 2,
        "name": "Electronics"
      },
      {
        "id": 3,
        "name": "Computers"
      }
    ],
    "habilidades": [
      {
        "id": 1,
        "name": "TypeScript ",
        "skill": 45
      },
      {
        "id": 2,
        "name": "javascript",
        "skill": 60
      },
      {
        "id": 3,
        "name": "html",
        "skill": 70
        
      },
      {
        "id": 4,
        "name": "css",
        "skill": 40
        
      },
      {
        "id": 5,
        "name": "Angular",
        "skill": 50
      },
      {
        "id": 6,
        "name": "MySQL",
        "skill":0
      },
      {
        "id": 7,
        "name": "Java",
        "skill": 32
        
      }
      
    ],
    "orders": [
      {
        "id": 1,
        "name": "Dominicode",
        "date": "01/12/1995",
        "shippingAddress": "Av. de la Granvia de Hospitalet, 115",
        "city": "Barcelona",
        "pickup": true
      }
    ],
    "detailsOrders": [
      {
        "id": 1,
        "orderId": 1,
        "quantity": 10,
        "productName": "Product name"
      }
    ]
  }